airport,latitude,longitude
PPG,-14.3310003281,-170.710006714
ROP,14.17430019378662,145.2429962158203
SPN,15.119,145.729004
UAM,13.584,144.929998
GUM,13.4834003448,144.796005249
TIQ,14.999199867248535,145.61900329589844
STT,18.337299346923828,-64.97339630126953
STX,17.701900482177734,-64.79859924316406
BQN,18.49489974975586,-67.12940216064453
FAJ,18.308900833129883,-65.66190338134766
SIG,18.45680046081543,-66.09809875488281
MAZ,18.255699157714844,-67.14849853515625
PSE,18.00830078125,-66.56300354003906
SJU,18.4393997192,-66.0018005371
BTI,70.1340026855,-143.582000732
LUR,68.87509918,-166.1100006
PIZ,69.73290253,-163.0050049
ITO,19.721399307250977,-155.04800415039062
ORL,28.5455,-81.332901
BTT,66.91390228,-151.529007
UTO,65.99279785,-153.7039948
FYU,66.57150268554688,-145.25
SVW,61.09740067,-155.5740051
FRN,61.26639938,-149.6529999
TLJ,62.8944015503,-155.977005005
CZF,61.78030014,-166.0390015
BED,42.47000122,-71.28900146
SNP,57.16730117797852,-170.22000122070312
EHM,58.6464004517,-162.06300354
STG,56.5783004761,-169.662002563
ILI,59.75439835,-154.9109955
PTU,59.01139831542969,-161.82000732421875
BMX,59.3611984253,-155.259002686
OSC,44.451599,-83.394096
OAR,36.68190002,-121.762001
MHR,38.55390167,-121.2979965
BYS,35.2804985046,-116.629997253
FSM,35.33660125732422,-94.36740112304688
MRI,61.2135009765625,-149.843994140625
GNT,35.167301178,-107.902000427
PNC,36.73199844,-97.09980011
SVN,32.00999832,-81.14569855
GFK,47.949299,-97.176102
PBF,34.1731,-91.9356
NSE,30.7241993,-87.02189636
HNM,20.79560089111328,-156.01400756835938
PRC,34.65449905,-112.4199982
TTN,40.27669906616211,-74.8134994506836
BOS,42.36429977,-71.00520325
SUU,38.262699127197,-121.92700195312
RME,43.23379898,-75.40699768
ENV,40.7187004089,-114.03099823
BFM,30.626800537100003,-88.06809997559999
OAK,37.721298,-122.221001
OMA,41.3032,-95.894096
OGG,20.8986,-156.429993
ICT,37.649899,-97.433098
MCI,39.2976,-94.713898
MSN,43.13990020751953,-89.3375015258789
DLG,59.04470062,-158.5050049
HRO,36.26150131225586,-93.15470123291016
PHX,33.43429946899414,-112.01200103759766
BGR,44.80739974975586,-68.8281021118164
FXE,26.1972999573,-80.1707000732
GGG,32.38399887084961,-94.71150207519533
AND,34.4945983887,-82.70939636230001
GEG,47.61989974975586,-117.53399658203124
HWO,26.0012,-80.2407
SFO,37.61899948120117,-122.375
CTB,48.6083984375,-112.375999451
ARA,30.0378,-91.883904
GNV,29.6900997162,-82.2717971802
MEM,35.04240036010742,-89.97669982910156
DUG,31.4689998627,-109.603996277
BIG,63.9944992065,-145.722000122
CNW,31.6378002167,-97.0740966797
ANN,55.04240036010742,-131.57200622558594
CAR,46.8714981079,-68.0178985596
LRF,34.916900634799994,-92.14969635010002
HUA,34.67869949,-86.68479919
POB,35.1708984375,-79.014503479004
DHT,36.0225982666,-102.54699707
DLF,29.359501,-100.778002
LAX,33.94250107,-118.4079971
ANB,33.5882,-85.8581
CLE,41.4117012024,-81.8498001099
DOV,39.12950134,-75.46600342
CVG,39.0488014221,-84.6678009033
FME,39.08539962769999,-76.7593994141
HON,44.38520050048828,-98.22850036621094
JNU,58.35499954223633,-134.5760040283203
LFT,30.20529938,-91.98760223
EWR,40.692501068115234,-74.168701171875
BOI,43.5644,-116.223
INS,36.5872001648,-115.672996521
GCK,37.9275016785,-100.723999023
MOT,48.2593994140625,-101.27999877929688
HHI,21.48349953,-158.0399933
MXF,32.3829,-86.365799
DAL,32.847099,-96.851799
FCS,38.67839813,-104.7570038
HLN,46.6068000793457,-111.98300170898438
NKX,32.86840057,-117.1429977
LUF,33.534999847399995,-112.383003235
HHR,33.922798,-118.334999
HUL,46.1231002808,-67.792098999
END,36.3391990662,-97.9164962769
NTD,34.120300293,-119.121002197
EDW,34.905399,-117.884003
LCH,30.126100540161133,-93.22329711914062
KOA,19.738783,-156.045603
MYR,33.6796989441,-78.9282989502
NLC,36.33300018,-119.9520035
ACK,41.25310135,-70.06020355
FAF,37.1324996948,-76.60880279540001
HOP,36.668598175,-87.49620056150002
DCA,38.8521,-77.037697
NHK,38.285999,-76.411797
PSX,28.727500915527,-96.250999450684
BYH,35.9642982483,-89.94400024410001
ACY,39.45759963989258,-74.57720184326172
TIK,35.414699554443,-97.386596679688
ECG,36.26060104,-76.17459869
PUB,38.289100646972656,-104.49700164794922
PQI,46.68899918,-68.0447998
GRF,47.07920074,-122.5810013
ADQ,57.75,-152.4940033
UPP,20.265300750732425,-155.86000061035156
FLL,26.072599,-80.152702
INL,48.566200256347656,-93.4030990600586
SLC,40.78839874267578,-111.97799682617188
CDS,34.4337997437,-100.288002014
BIX,30.4104003906,-88.92440032959999
LSF,32.337299346900004,-84.9913024902
NQI,27.5072002411,-97.8097000122
FRI,39.05530167,-96.76450348
MDT,40.1935005188,-76.7633972168
LNK,40.85100173950195,-96.75920104980467
LAN,42.77870178222656,-84.58740234375
MUE,20.001300811767575,-155.66799926757812
MSS,44.93579864501953,-74.84559631347656
HKY,35.74110031,-81.38950348
SPG,27.7651,-82.626999
FMY,26.58659935,-81.86329650879999
IAH,29.984399795532227,-95.34140014648438
ADW,38.810799,-76.866997
INT,36.13370132446289,-80.22200012207031
VCV,34.597499847399995,-117.383003235
CEW,30.778799057,-86.522102356
PHN,42.9109993,-82.52890015
BFL,35.43360138,-119.0569992
ELP,31.80719948,-106.3779984
HRL,26.228500366210938,-97.65440368652344
CAE,33.93880081176758,-81.11949920654297
DMA,32.1665000916,-110.883003235
NPA,30.35269928,-87.31860352
PNS,30.473400115967,-87.186599731445
RDR,47.961101532,-97.4011993408
HOU,29.64539909,-95.27890015
BFK,39.7016983032,-104.751998901
ORT,62.9612999,-141.9290009
PAQ,61.594898,-149.08901
PIT,40.49150085,-80.23290253
BRW,71.285402,-156.766008
EFD,29.6072998047,-95.1587982178
NUW,48.351799,-122.655998
ALI,27.7409000397,-98.02690124510002
VAD,30.9678001404,-83.1930007935
MIA,25.79319953918457,-80.29060363769531
SEA,47.449001,-122.308998
CHA,35.035301208496094,-85.20379638671875
BDR,41.16350173950195,-73.1261978149414
JAN,32.3111991882,-90.0758972168
GLS,29.265300750732425,-94.8603973388672
LGB,33.81769943,-118.1520004
HDH,21.5795001984,-158.197006226
IPT,41.241798400878906,-76.92109680175781
IND,39.7173,-86.294403
SZL,38.73030090332,-93.547897338867
AKC,41.0374984741,-81.4669036865
GWO,33.4943008423,-90.0847015381
HPN,41.06700134277344,-73.70760345458984
FOK,40.8437004089,-72.6317977905
JBR,35.83169937133789,-90.64640045166016
XSD,37.7988014221,-116.78099823
LNA,26.59300041,-80.08509827
NZY,32.69919968,-117.2149963
BIF,31.84950066,-106.3799973
YUM,32.65660095,-114.6060028
CNM,32.337501525878906,-104.26300048828124
DLH,46.8420982361,-92.1936035156
BET,60.77980042,-161.8379974
LOU,38.2280006409,-85.6636962891
FHU,31.588499069213867,-110.34400177001952
LIH,21.97599983215332,-159.33900451660156
HUF,39.4515,-87.307602
HVR,48.54299927,-109.762001
MWH,47.20769882,-119.3199997
MPV,44.20349884,-72.56230164
RIC,37.50519943237305,-77.3197021484375
SHV,32.446602,-93.8256
CDV,60.4917984,-145.4779968
ORF,36.89459991455078,-76.20120239257812
BPT,29.9507999420166,-94.02069854736328
SAV,32.12760162,-81.20210266
HIF,41.12403,-111.973086
OME,64.51219940185547,-165.44500732421875
PIE,27.91020012,-82.68740082
MNM,45.126701,-87.638397
CXO,30.351801,-95.414497
SCC,70.19470215,-148.4649963
SAT,29.533700942993164,-98.46980285644533
ROC,43.118900299072266,-77.67240142822266
COF,28.2348995209,-80.6100997925
TEB,40.85010147089999,-74.060798645
RCA,44.14500046,-103.1039963
RDU,35.87760162353516,-78.7874984741211
DAY,39.90240097045898,-84.21939849853516
ENA,60.57310104370117,-151.2449951171875
MLC,34.882401,-95.783501
IAG,43.1072998046875,-78.94619750976562
CFD,30.7157001495,-96.3313980103
LIY,31.889099,-81.562303
PHF,37.13190079,-76.49299622
ESF,31.3948993683,-92.2957992554
LTS,34.667098999,-99.2667007446
TUS,32.1161003112793,-110.94100189208984
MIB,48.4156,-101.358002
BAB,39.136100769,-121.43699646
IKK,41.07139968869999,-87.8462982178
GSB,35.33940125,-77.96060181
PVD,41.732601,-71.420403
SBY,38.34049987792969,-75.51029968261719
BUR,34.20069885253906,-118.35900115966795
DTW,42.212398529052734,-83.35340118408203
TPA,27.975500106811523,-82.533203125
PMB,48.9425010681,-97.2407989502
POE,31.0447998,-93.1917038
EIL,64.66570282,-147.102005
HIB,47.38660049,-92.83899689
LFK,31.2339992523,-94.75
MAF,31.9424991607666,-102.2020034790039
GRB,44.48509979248047,-88.12960052490234
ADM,34.30301,-97.0196342
WRI,40.0155983,-74.59169769
AGS,33.36989974975586,-81.9645004272461
ISN,48.177898407,-103.641998291
LIT,34.729400634799994,-92.2242965698
SWF,41.50410079956055,-74.10479736328125
BDE,48.7284011841,-94.612197876
SAC,38.5125007629,-121.492996216
HOM,59.645599365234375,-151.4770050048828
TBN,37.74160004,-92.14070129
MGE,33.91540146,-84.51629639
SKA,47.6151008606,-117.65599823
HTL,44.359798,-84.671095
PAM,30.0695991516,-85.57540130619999
DFW,32.896801,-97.038002
MLB,28.10280036926269,-80.64530181884766
TCM,47.1376991272,-122.475997925
AUS,30.194499969482425,-97.6698989868164
LCK,39.813801,-82.927803
MQT,46.3535995483,-87.395401001
TYS,35.81100082,-83.9940033
HLR,31.1387004852,-97.7145004272
STL,38.748697,-90.370003
MIV,39.367802,-75.072197
SPS,33.9888,-98.491898
LUK,39.10329819,-84.41860199
ATL,33.6367,-84.428101
MER,37.38050079,-120.5680008
MCC,38.66759872,-121.401001
GRR,42.88079834,-85.52279663
INK,31.7796001434,-103.200996399
FAT,36.77619934082031,-119.71800231933594
VRB,27.6556,-80.417901
IPL,32.834201812699995,-115.57900238
BNA,36.1245002746582,-86.6781997680664
LRD,27.543800354003903,-99.46160125732422
EDF,61.2509994506836,-149.8070068359375
OTZ,66.88469696,-162.598999
AOO,40.29639816,-78.31999969
DYS,32.4207992554,-99.854598999
ELD,33.22100067138672,-92.81330108642578
LGA,40.77719879,-73.87259674
TLH,30.396499633789062,-84.35030364990234
DPA,41.90779877,-88.24859619
ACT,31.611299514770508,-97.23049926757812
AUG,44.3205986023,-69.7973022461
NIP,30.2358,-81.680603
MKL,35.599899,-88.915604
MKK,21.15290069580078,-157.0959930419922
FTK,37.9071006775,-85.9720993042
SJT,31.35770034790039,-100.49600219726562
CXL,32.6694984436,-115.513000488
CIC,39.79539871,-121.8580017
BTV,44.4719009399,-73.15329742429999
JAX,30.49410057067871,-81.68789672851562
DRO,37.1515007019,-107.753997803
IAD,38.94449997,-77.45580292
CLL,30.58860016,-96.36380005
SFF,47.682800292969,-117.32299804688
MKE,42.94720077514648,-87.89659881591797
ABI,32.4113006592,-99.6819000244
COU,38.81809997558594,-92.21959686279295
PDX,45.58869934,-122.5979996
TNT,25.861799240112,-80.897003173828
PBI,26.68320083618164,-80.09559631347656
FTW,32.819801,-97.362396
OGS,44.6819000244,-75.46549987790002
FMH,41.6584014893,-70.5214004517
BFI,47.52999877929688,-122.302001953125
SKF,29.38419914,-98.58110046
HNL,21.32062,-157.924228
DSM,41.53400039672852,-93.66310119628906
EWN,35.0730018616,-77.04290008539999
SAN,32.7336006165,-117.190002441
MLU,32.51089859008789,-92.0376968383789
SSC,33.97269821,-80.47059631
ONT,34.055999755859375,-117.60099792480467
GVT,33.0677986145,-96.0652999878
ROW,33.30160140991211,-104.53099822998048
DET,42.40919876,-83.00990295
BRO,25.90679931640625,-97.4259033203125
DHN,31.3213005065918,-85.44960021972656
WWD,39.0084991455,-74.9083023071
NFL,39.41659927,-118.7009964
MTC,42.613463,-82.836919
FMN,36.7411994934,-108.230003357
CRP,27.77039909362793,-97.5011978149414
SYR,43.11119842529297,-76.1063003540039
NQX,24.57579994,-81.68890381
MDW,41.785999,-87.752403
SJC,37.362598,-121.929001
HOB,32.6875,-103.2170029
PNE,40.081902,-75.010597
DEN,39.861698150635,-104.672996521
PHL,39.87189865112305,-75.24109649658203
SUX,42.40259933,-96.38439941
MCN,32.69279861450195,-83.64920043945312
TCS,33.2369003296,-107.272003174
PMD,34.62939835,-118.0849991
RND,29.52969933,-98.27890015
NJK,32.829201,-115.671996
CMH,39.998001,-82.891899
FYV,36.00510025024414,-94.17009735107422
FSI,34.64979935,-98.40219879
FFO,39.8260993958,-84.0483016968
GAL,64.73619843,-156.9369965
MWL,32.7816009521,-98.0602035522
IAB,37.62189865,-97.26820374
NBG,29.82530022,-90.03500366
BFT,32.4122009277,-80.6343994141
TXK,33.45370101928711,-93.99099731445312
PBG,44.6509017944336,-73.46810150146484
APG,39.466202,-76.1688
TCC,35.182800293,-103.602996826
ANC,61.17440032958984,-149.99600219726562
GRK,31.067199707,-97.8289031982
BLI,48.79280090332031,-122.53800201416016
NQA,35.356701,-89.8703
EKN,38.88940048,-79.85710144
HFD,41.736698150635,-72.649398803711
SFZ,41.9207992554,-71.49140167239999
MOB,30.691200256348,-88.242797851562
NUQ,37.4161,-122.049004
SAF,35.617099762,-106.088996887
BKH,22.0228004456,-159.785003662
DRI,30.8316993713,-93.3398971558
BSF,19.760099411,-155.554000854
OLS,31.4177,-110.848
MCF,27.84930038,-82.52120209
BLV,38.5452,-89.835197
OPF,25.907,-80.278397
DRT,29.3742008209,-100.927001953
RSW,26.53619956970215,-81.75520324707031
AKN,58.67679977,-156.6490021
MUI,40.434799,-76.569397
JHM,20.962900161743164,-156.67300415039062
JFK,40.63980103,-73.77890015
HST,25.48859978,-80.38359833
RAL,33.95190048,-117.4449997
FLV,39.3683013916,-94.9147033691
WAL,37.9402008057,-75.4664001465
HMN,32.8525009155,-106.107002258
NXX,40.19979858,-75.14820099
CYS,41.15570068,-104.8119965
SCK,37.894199371338,-121.2379989624
CHS,32.89860153,-80.04049683
RNO,39.49909973144531,-119.76799774169922
KTN,55.35559845,-131.7140045
YIP,42.23789978,-83.53040314
VBG,34.7373008728,-120.583999634
BHM,33.56290054,-86.75350189
NEL,40.03329849,-74.353302
SYA,52.71229935,174.1139984
LSV,36.2361984253,-115.033996582
RIV,33.880699,-117.259003
MOD,37.62580109,-120.9540024
SMF,38.69540023803711,-121.59100341796876
UGN,42.422199249268,-87.867897033691
COS,38.805801,-104.700996
BUF,42.94049835,-78.73220062
SKY,41.4333992004,-82.6522979736
PAE,47.90629959,-122.2819977
MUO,43.043598,-115.872002
CDC,37.70100021362305,-113.0989990234375
BDL,41.9388999939,-72.68319702149999
MFE,26.17580032,-98.23860168
NGU,36.937599,-76.289299
CEF,42.19400024,-72.53479767
LBB,33.663601,-101.822998
ORD,41.9786,-87.9048
BCT,26.3784999847,-80.1076965332
FAI,64.81510162,-147.8560028
CVS,34.3828010559,-103.321998596
NGF,21.4505004883,-157.768005371
OFF,41.118301391602,-95.912498474121
GKN,62.1548996,-145.4570007
ART,43.99190139770508,-76.02169799804688
PSP,33.8297004699707,-116.50700378417967
AMA,35.219398,-101.706001
FOD,42.55149841,-94.19259644
BAD,32.5018005371,-93.6626968384
FOE,38.9509010315,-95.6635971069
COT,28.45669937,-99.22029877
ILM,34.270599365234375,-77.90260314941406
BTR,30.533199,-91.149597
TYR,32.35409927368164,-95.40239715576172
BWI,39.1754,-76.668297
HBR,34.991317,-99.051313
LNY,20.785600662231445,-156.9510040283203
AEX,31.32740020751953,-92.54979705810548
WSD,32.34149933,-106.4029999
CDB,55.20610046386719,-162.72500610351562
TUL,36.19839859008789,-95.88809967041016
SIT,57.04710006713867,-135.36199951171875
ISP,40.79520035,-73.10019684
MSP,44.882,-93.221802
ILG,39.67869949,-75.60649872
DUT,53.900100708,-166.544006348
MSY,29.99340057373047,-90.25800323486328
PWM,43.64619827,-70.30930328
OKC,35.39310073852539,-97.60070037841795
ALB,42.74829864501953,-73.80169677734375
VDZ,61.13389969,-146.2480011
LFI,37.082901001,-76.360496521
SNA,33.67570114,-117.8679962
CBM,33.6437988281,-88.44380187990001
TMB,25.6478996277,-80.432800293
NTU,36.820702,-76.033501
GUS,40.6481018066,-86.1520996094
CPR,42.908001,-106.463997
VPS,30.4832,-86.525398
SEM,32.343898773193,-86.987800598145
EYW,24.556100845336918,-81.75959777832031
CLT,35.2140007019043,-80.94309997558594
LAS,36.08010101,-115.1520004
MCO,28.429399490356445,-81.30899810791016
FLO,34.18539810180664,-79.7238998413086
GTF,47.48199844,-111.3710022
YNG,41.26070023,-80.67910004
FBK,64.83750153,-147.6139984
WRB,32.6400985718,-83.5919036865
PUW,46.7439,-117.110001
LWS,46.3745002746582,-117.01499938964844
ELM,42.1599006652832,-76.8916015625
ITH,42.49100112915039,-76.4583969116211
MRY,36.58700180053711,-121.84300231933594
SBA,34.42620087,-119.8399963
DAB,29.179899,-81.058098
JRB,40.70119858,-74.00900269
TKA,62.320499420166,-150.09399414062
HVN,41.26369858,-72.88680267
AVL,35.43619918823242,-82.54180145263672
GSO,36.097801208496094,-79.93730163574219
FSD,43.5820007324,-96.741897583
MHT,42.932598,-71.435699
APF,26.1525993347,-81.7752990723
SDF,38.1744,-85.736
CHO,38.13859939575195,-78.4529037475586
ROA,37.3255,-79.975403
LEX,38.0364990234375,-84.60590362548828
EVV,38.0369987488,-87.5324020386
ABQ,35.040199,-106.609001
BZN,45.77750015,-111.1529999
BIL,45.80770111083984,-108.54299926757812
BTM,45.95479965209961,-112.49700164794922
TVC,44.74140167236328,-85.58219909667969
BHB,44.45000076,-68.3615036
RKD,44.06010056,-69.09919739
JAC,43.6072998046875,-110.73799896240234
RFD,42.19540023803711,-89.09719848632812
GSP,34.8956985474,-82.2189025879
BMI,40.47710037,-88.91590118
GPT,30.40730094909668,-89.07009887695312
AZO,42.234901428222656,-85.5521011352539
TOL,41.58679962,-83.80780029
FWA,40.97850037,-85.19509888
DEC,39.834598541259766,-88.8656997680664
CID,41.88470077514648,-91.71080017089844
LSE,43.879002,-91.256699
CWA,44.7775993347,-89.6668014526
PIA,40.664199829100006,-89.6932983398
ATW,44.2580986023,-88.5190963745
RST,43.90829849243164,-92.5
CMI,40.03919983,-88.27809906
MHK,39.14099884033203,-96.6707992553711
FKL,41.3778991699,-79.8603973389
GJT,39.1223983765,-108.527000427
SGU,37.036389,-113.510306
DWH,30.0618000031,-95.5528030396
SRQ,27.39539909362793,-82.55439758300781
VNY,34.209800720215,-118.48999786377
MLI,41.44850158691406,-90.50749969482422
PFN,30.212099,-85.6828
BIS,46.77270126342773,-100.74600219726562
TEX,37.9538002,-107.9079971
RAP,44.0452995300293,-103.05699920654295
CLD,33.12829971,-117.2799988
FNT,42.96540069580078,-83.74359893798828
RDD,40.50899887,-122.2929993
EUG,44.12459945678711,-123.21199798583984
IDA,43.514599,-112.070999
MFR,42.37419891357422,-122.8730010986328
RDM,44.2541008,-121.1500015
CAK,40.91609954833984,-81.44219970703125
HSV,34.637199401855,-86.775100708008
PKB,39.34510040283203,-81.43920135498047
MGM,32.30059814,-86.39399719
TRI,36.475201,-82.407401
PAH,37.06079864501953,-88.7738037109375
PGA,36.92610168,-111.447998
FCA,48.31050109863281,-114.25599670410156
MBS,43.532901763916016,-84.07959747314453
BGM,42.20869827,-75.97979736
BLH,33.6192016602,-114.717002869
PSG,56.80170059,-132.9450073
SFB,28.7775993347168,-81.23750305175781
JST,40.31610107421875,-78.83390045166016
MSO,46.91630173,-114.0910034
GCN,35.95240020751953,-112.14700317382812
SGR,29.622299194336,-95.65650177002
APA,39.57009888,-104.848999
CVN,34.4250984192,-103.07900238
FST,30.9157009125,-102.916000366
LVS,35.6542015076,-105.141998291
IWS,29.8181991577,-95.6725997925
LRU,32.289398193359375,-106.9219970703125
BKD,32.71900177,-98.8909988403
TPL,31.15250015258789,-97.40779876708984
OZA,30.735300064087,-101.20300292969
EGE,39.64260101,-106.9179993
CGF,41.5651016235,-81.4863967896
MFD,40.82139968869999,-82.5166015625
CSG,32.516300201416016,-84.93890380859375
LAW,34.5676994324,-98.4166030884
FNL,40.451804,-105.011
FLG,35.13850021,-111.6709976
TVL,38.89390182495117,-119.99500274658205
TWF,42.4818,-114.487999
MVY,41.3931007385,-70.6143035889
CON,43.20270157,-71.50229645
GON,41.3301010131836,-72.04509735107422
STC,45.54660034179688,-94.05989837646484
GTR,33.450298309299995,-88.5914001465
HQM,46.9711990356,-123.93699646
ERI,42.0831270134,-80.1738667488
HYA,41.66930008,-70.28040314
SDX,34.848598480225,-111.78800201416
MGW,39.64289856,-79.91629791
CRW,38.37310028076172,-81.59320068359375
AVP,41.3385009766,-75.72339630130001
BJI,47.50939941,-94.93370056
FAR,46.92070007324219,-96.81580352783205
MKC,39.12319946289063,-94.5927963256836
GCC,44.3488998413,-105.539001465
NZJ,33.67610168457031,-117.7310028076172
SCE,40.8493003845,-77.84870147710001
MEI,32.33259963989258,-88.75189971923828
SPI,39.84410095,-89.67790222
CEZ,37.3030014038,-108.627998352
HDN,40.48120117,-107.2180023
GUP,35.511100769,-108.789001465
LBL,37.0442009,-100.9599991
LAA,38.0696983337,-102.68800354
GLD,39.37060165,-101.6989975
COD,44.520198822,-109.024002075
SGF,37.24570084,-93.38860321
JLN,37.151798248291016,-94.49829864501952
ABE,40.652099609375,-75.44080352783203
XNA,36.281898,-94.306801
SBN,41.70869827270508,-86.31729888916016
SMD,41.14339828,-85.15280151
ACV,40.978101,-124.109
OAJ,34.8292007446,-77.61209869380001
TCL,33.220600128174,-87.611396789551
DBQ,42.40200043,-90.70950317
ABR,45.449100494384766,-98.42179870605467
ABY,31.535499572753903,-84.19450378417969
AHN,33.94860076904297,-83.32630157470703
ALM,32.8399009705,-105.990997314
ALO,42.55709838867188,-92.40029907226562
ALW,46.09489822,-118.288002
APN,45.0780983,-83.56030273
ATY,44.91400146,-97.15470123
BFD,41.8031005859375,-78.64009857177734
BFF,41.87400055,-103.5960007
BKW,37.7873001099,-81.1241989136
BQK,31.2588005065918,-81.46649932861328
BRL,40.783199310302734,-91.12550354003906
CEC,41.78020096,-124.2369995
CGI,37.22529983520508,-89.57080078125
CIU,46.25080108642578,-84.47239685058594
CKB,39.2966003418,-80.2281036377
CLM,48.12020111083984,-123.5
CMX,47.168399810791016,-88.48909759521484
DDC,37.76340103149414,-99.9655990600586
DUJ,41.17829895,-78.8986969
EAU,44.86579895019531,-91.48429870605467
EKO,40.82490158081055,-115.79199981689452
EWB,41.67610168457031,-70.95690155029297
FAY,34.9911994934082,-78.88030242919922
GGW,48.212502,-106.614998
GRI,40.96749877929688,-98.30960083007812
HOT,34.47800064086914,-93.09619903564452
HTS,38.36669922,-82.55799866
IRK,40.09349822998047,-92.5448989868164
JMS,46.92969894,-98.67819977
LAR,41.31209945678711,-105.6750030517578
LBE,40.27590179,-79.40480042
LBF,41.12620163,-100.6839981
LEB,43.6260986328,-72.30419921880001
LMT,42.156101,-121.733002
LNS,40.121700286865234,-76.29609680175781
LWT,47.04930114746094,-109.46700286865234
LYH,37.326698303222656,-79.20040130615234
MKG,43.16949844,-86.23819733
MLS,46.428001403808594,-105.88600158691406
MSL,34.74530029,-87.61019897
OTH,43.41709899902344,-124.24600219726562
OWB,37.74010086,-87.16680145
PIB,31.467100143432617,-89.33709716796875
PIH,42.9098014831543,-112.59600067138672
PIR,44.38270187,-100.2860031
PLN,45.57089996,-84.79669952
PSM,43.0778999329,-70.8233032227
RDG,40.37850189208984,-75.96520233154297
RHI,45.63119888305664,-89.46749877929688
RKS,41.5942,-109.065001
RUT,43.52939987,-72.94960022
SBP,35.2368011475,-120.641998291
SHR,44.76919937133789,-106.9800033569336
SLK,44.38529968261719,-74.2061996459961
SLN,38.79100036621094,-97.6521987915039
SMX,34.89889908,-120.4570007
TUP,34.26810073852539,-88.7698974609375
UIN,39.94269943,-91.19460297
VCT,28.85260009765625,-96.9185028076172
VLD,30.78249931335449,-83.27670288085938
WRL,43.9656982421875,-107.95099639892578
YKM,46.56819916,-120.5439987
ADK,51.87799835205078,-176.64599609375
GST,58.4253006,-135.7070007
SGY,59.46009826660156,-135.3159942626953
HCR,62.18830108642578,-159.77499389648438
HNS,59.24380111694336,-135.5240020751953
KLG,61.53630065917969,-160.34100341796875
MCG,62.95289993,-155.6060028
MOU,62.095401763916016,-163.6820068359375
ANI,61.58160018920898,-159.54299926757812
VAK,61.5409,-165.6005
WRG,56.48429871,-132.3699951
LUP,21.21100044,-156.973999
WKK,59.2826004028,-158.617996216
BLF,37.29579925537109,-81.20770263671875
GLH,33.4828987121582,-90.98560333251952
PSC,46.26470184326172,-119.11900329589844
KQA,54.1337704415,-165.778895617
LPS,48.4838981628418,-122.93800354003906
WKL,19.9205,-155.8607
ORH,42.26729965209961,-71.87570190429688
PWT,47.490200042725,-122.76499938965
SPW,43.165500640869,-95.202796936035
JEF,38.5912017822,-92.1560974121
PVC,42.0718994141,-70.2213973999
FUL,33.8720016479,-117.980003357
USA,35.387798,-80.709099
SUN,43.50439835,-114.2959976
MCW,43.157798767100005,-93.3312988281
AZA,33.30780029,-111.6549988
AKP,68.13359833,-151.7429962
ANV,62.646702,-160.190994
ATK,70.46730041503906,-157.43600463867188
GAM,63.76679992675781,-171.73300170898438
HPB,61.52389908,-166.1470032
KAL,64.31909943,-158.7409973
KSM,62.0605011,-163.302002
KVL,67.73619842529297,-164.56300354003906
MYU,60.37139892578125,-166.27099609375
RBY,64.72720337,-155.4700012
SHH,66.249604,-166.089112
SVA,63.6864013671875,-170.4929962158203
WTK,67.56610107421875,-162.97500610351562
ARC,68.1147,-145.578995
KPC,65.2537002563,-166.85899353
HGR,39.707901,-77.72949982
SDP,55.31499862670898,-160.5229949951172
DRG,66.0696029663,-162.76600647
IGG,59.32400131225586,-155.90199279785156
KNW,59.4499015808,-157.32800293
KVC,55.11629867553711,-162.26600646972656
PTH,56.95909881591797,-158.63299560546875
TOG,59.05279922485352,-160.39700317382812
VQS,18.1158008575,-65.4226989746
ESC,45.7226982117,-87.0936965942
YAK,59.5032997131,-139.660003662
CPX,18.313289,-65.304324
MWA,37.75500107,-89.01110077
IMT,45.8184013367,-88.1145019531
AET,66.5518035889,-152.621994019
MGC,41.7033004761,-86.8211975098
SWD,60.12689971923828,-149.41900634765625
GRM,47.8382987976,-90.3828964233
AUW,44.9262008667,-89.6266021729
MIE,40.2422981262207,-85.3958969116211
LAF,40.41230010986328,-86.93689727783203
VGT,36.21070098877,-115.19400024414
ENW,42.59569931,-87.92780304
MTJ,38.5097999573,-107.893997192
RIW,43.064201355,-108.459999084
PDT,45.695098877,-118.841003418
OSH,43.98440170288086,-88.55699920654297
EAT,47.3988990784,-120.207000732
ARE,18.4500007629,-66.6753005981
FWH,32.76919937,-97.4414978
GYY,41.61629867553711,-87.41280364990234
BRD,46.39830017,-94.13809967
LWB,37.8582992554,-80.3994979858
PGV,35.6352005,-77.38529968
CYF,60.1492004395,-164.285995483
OXR,34.200801849365,-119.20700073242
BKG,36.532082,-93.200544
SCH,42.852500915527,-73.928901672363
UST,29.9592,-81.339798
STS,38.50899887,-122.8130035
ISM,28.2898006439,-81.4371032715
LCQ,30.1819992065,-82.57689666750001
LGU,41.7911987305,-111.851997375
BMC,41.552399,-112.061996
ASE,39.22320175,-106.8690033
ERV,29.9766998291,-99.0857009888
GED,38.68920135,-75.35890198
GBD,38.3442993164,-98.8591995239
HYS,38.84220123,-99.27320099
SUS,38.662101745605,-90.652000427246
LYU,47.82450104,-91.83070374
GPZ,47.21110153,-93.50980377
TVF,48.06570053,-96.18499756
EGV,45.9323005676,-89.26830291750001
ARV,45.92789841,-89.73090363
AVX,33.4049,-118.416
MHV,35.05939865,-118.1520004
HUT,38.0654983521,-97.86060333250002
STJ,39.771900177002,-94.909698486328
VOK,43.938999176025,-90.253402709961
GUC,38.53390121,-106.9329987
TOA,33.803398132324,-118.33999633789
MBL,44.2723999,-86.24690247
PGD,26.92020035,-81.9905014
WFK,47.2854995728,-68.31279754639999
JHW,42.15340042,-79.25800323
SME,37.0533981323,-84.6158981323
SHD,38.2638015747,-78.8964004517
DVL,48.11420059,-98.90879822
DIK,46.7974014282,-102.802001953
SDY,47.706902,-104.193001
CDR,42.837600708,-103.095001221
AIA,42.0531997681,-102.804000854
MCK,40.20629883,-100.5920029
MTH,24.726101,-81.051399
GDV,47.13869858,-104.8069992
OLF,48.0945014954,-105.574996948
WYS,44.68840027,-111.1179962
ALS,37.434898,-105.866997
CNY,38.75500107,-109.7549973
ELY,39.29970169,-114.8420029
VEL,40.4408989,-109.5100021
RUI,33.462799072266,-105.53500366211
SOW,34.265499115,-110.005996704
MYL,44.88970184,-116.1009979
SMN,45.1237983704,-113.880996704
MMH,37.62409973,-118.8379974
FRD,48.5219993591,-123.024002075
ESD,48.7081985474,-122.910003662
AST,46.158000946,-123.878997803
ONP,44.580399,-124.057999
EMK,62.78609848,-164.4909973
UNK,63.88840103,-160.798996
UUK,70.33080291750001,-149.598007202
SHX,62.6922988892,-159.569000244
CHU,61.579102,-159.216003
NUI,70.2099990845,-151.005996704
EEK,60.21367264,-162.0438843
KUK,60.87440109,-162.5240021
KWT,60.7902984619,-161.444000244
KWK,59.876499,-163.169005
MLL,61.8642997742,-162.026000977
RSH,61.7788848877,-161.319458008
KGK,59.726600647,-157.259002686
KMO,58.9902000427,-159.050003052
CIK,66.6449966431,-143.740005493
EAA,64.77639771,-141.151001
HUS,66.04109955,-154.2630005
HSL,65.69789886,-156.3509979
NUL,64.729301,-158.074005
VEE,67.0086975098,-146.365997314
WBQ,66.362197876,-147.406997681
CEM,65.57379913,-144.7830048
SHG,66.88809967041,-157.16200256348
IYK,35.65879822,-117.8300018
VIS,36.3186988831,-119.392997742
MCE,37.28469849,-120.5139999
GYR,33.4225006104,-112.375999451
AGN,57.503601,-134.585007
ELV,58.1952018738,-136.347000122
FNR,58.2543983459,-134.897994995
HNH,58.0961,-135.410111
MTM,55.131001,-131.578003
HYG,55.206298828125,-132.8280029296875
EGX,58.1855010986,-157.375
KPV,55.905998,-159.162993
PIP,57.5803985596,-157.572006226
WSN,58.7033996582,-157.007995605
AKK,56.9387016296,-154.182998657
KYK,57.5671005249,-154.449996948
KLN,57.5350990295,-153.977996826
ABL,67.1063,-157.856989
BKC,65.9815979004,-161.149002075
IAN,66.9759979248,-160.43699646
OBU,66.9123001099,-156.897003174
ORV,66.81790161,-161.0189972
WLK,66.60009766,-159.9859924
KTS,65.3312988281,-166.466003418
ELI,64.61470032,-162.2720032
GLV,64.5504989624,-163.007003784
TLA,65.2404022217,-166.339004517
WAA,65.622593,-168.095
WMO,64.689201355,-163.412994385
KKA,64.9394989014,-161.154006958
SMK,63.49010086,-162.1100006
SKK,64.37110138,-161.223999
TNC,65.56310272,-167.9219971
AKB,52.22029877,-174.2059937
IKO,52.94160079956055,-168.8489990234375
CYT,60.080974,-142.494541
AUK,62.6800422668,-164.659927368
KPN,59.9329986572,-164.031005859
KFP,54.8474006652832,-163.41000366210938
NLG,56.007499694824,-161.16000366211
PML,56.0060005188,-160.561004639
KLW,55.5792007446,-133.076004028
KWN,59.7551,-161.845
KOT,63.0306015015,-163.533004761
KYU,64.8760986328,-157.727005005
SCM,61.845298767100005,-165.570999146
NNL,59.980201721191,-154.8390045166
KKH,59.9608001709,-162.880996704
NIB,63.0186,-154.358002
AKI,60.9029006958,-161.231002808
AIN,70.6380004883,-159.994995117
NCN,60.0773010254,-147.992004395
TKJ,63.32949829,-142.9539948
IRC,65.830498,-144.076008
SLQ,61.7005004883,-157.166000366
LMA,63.886002,-152.302002
MLY,64.99759674069999,-150.643997192
NRR,18.245300293,-65.6434020996
SPB,18.338600158691406,-64.9406967163086
MRB,39.40190125,-77.98459625
RKH,34.9878006,-81.05719757
AGC,40.354400634765625,-79.9301986694336
VQQ,30.2187004089,-81.876701355
FTY,33.7790985107,-84.5214004517
OSU,40.0798,-83.072998
ADS,32.9686012268,-96.8364028931
DSI,30.40010071,-86.47149658
ISO,35.331401825,-77.60880279540001
FFA,36.0181999207,-75.67130279540001
PVU,40.219200134277,-111.72299957275
SBS,40.5163002,-106.8659973
DTA,39.3805999756,-112.508003235
PUC,39.61389923,-110.7509995
LAM,35.8797988892,-106.268997192
HII,34.571098,-114.358002
INW,35.021900177,-110.722999573
DGL,31.3425998688,-109.505996704
BOW,27.9433994293,-81.78340148930002
FTI,-14.2172,-169.425003
LVK,37.6934013367,-121.819999695
RMY,37.5108985901,-120.040000916
TRM,33.62670135498,-116.16000366211
SMO,34.015800476100004,-118.450996399
UDD,33.748401641846,-116.27500152588
SCF,33.622898101807,-111.91100311279
OLM,46.9693985,-122.9029999
RIL,39.526299,-107.726997
SAA,41.444901,-106.823997
PDK,33.8755989075,-84.3020019531
BMG,39.14599990844727,-86.61669921875
SUA,27.18169975,-80.22109985
MMU,40.79940032958984,-74.41490173339844
APC,38.2132,-122.280998
SDM,32.572299957275,-116.98000335693
VNC,27.071599960327,-82.440299987793
PHK,26.78499985,-80.69339752
ECP,30.357106,-85.795414
SBD,34.0954017639,-117.23500061
SQL,37.511901855469,-122.25
RWI,35.856300354003906,-77.89189910888672
SXQ,60.47570037841797,-151.03399658203125
SEE,32.826198577881,-116.97200012207
TKF,39.3199996948,-120.13999939
LVM,45.6994018555,-110.447998047
GMV,37.0167007446,-110.200996399
JRA,40.754501,-74.007103
LAL,27.988899,-82.018602
RBK,33.5741996765,-117.127998352
MGY,39.5890007019,-84.224899292
FDY,41.0135002136,-83.66870117190001
SPF,44.48030090332,-103.78299713135
OLV,34.9786987305,-89.78690338130001
BJC,39.90879822,-105.1169968
SLE,44.90950012,-123.0029984
UTM,34.680999755859,-90.346702575684
MWC,43.110401,-88.034401
JVL,42.620300293,-89.0416030884
LZU,33.97809982,-83.96240234
BWG,36.9645004272,-86.41970062259999
RVS,36.039600372314,-95.984596252441
BCE,37.706401825,-112.144996643
JCI,38.8308982849,-94.890296936
ESN,38.8041992188,-76.06900024410001
MYV,39.09780121,-121.5699997
DUC,34.47090149,-97.9598999
UVA,29.2112998962,-99.743598938
LOT,41.6072998,-88.09619904
CCR,37.9897003174,-122.056999207
OCA,25.325399398804,-80.274803161621
ATO,39.2109985352,-82.23139953610001
SGH,39.840301513672,-83.840202331543
TOP,39.068698883057,-95.622497558594
MQY,36.0089988708,-86.5201034546
UOS,35.205101013184,-85.898101806641
PWK,42.114222,-87.901494
KLS,46.11800003049999,-122.898002625
ILN,39.427898407,-83.792098999
AVW,32.4095993042,-111.218002319
CGZ,32.954899,-111.766998
BXK,33.42039871,-112.685997
MMI,35.39730072,-84.56259918
STK,40.61529922,-103.2649994
RWL,41.80559921,-107.1999969
CDW,40.875198364300005,-74.2814025879
AIZ,38.0960006714,-92.54949951170002
TVI,30.901599884033,-83.881301879883
HSH,35.9728012085,-115.134002686
TMA,31.4290008545,-83.4885025024
DVT,33.6883010864,-112.083000183
FRG,40.7288017273,-73.4133987427
MCL,63.7326011658,-148.910995483
PPC,66.814102172852,-150.64399719238
HLG,40.1749992371,-80.6463012695
RKP,28.0867996216,-97.0446014404
TTD,45.54940032959,-122.40100097656
HIO,45.540401,-122.949997
BNO,43.5918998718,-118.955001831
PRZ,44.286998748779,-120.90399932861
RBL,40.1506996155,-122.251998901
NOT,38.143600463867,-122.55599975586
LKV,42.1610984802,-120.399002075
OTK,45.4182014465,-123.814002991
ONO,44.020500183105,-117.01399993896
DLS,45.6184997559,-121.166999817
GAI,39.1683006287,-77.1660003662
MVL,44.53459930419999,-72.6139984131
RBD,32.6809005737,-96.8682022095
WST,41.3496017456,-71.8033981323
BID,41.1680984497,-71.577796936
NME,60.471000671387,-164.70100402832
OOK,60.54140091,-165.0870056
BGE,30.9715004,-84.63739777
WHP,34.2593002319,-118.413002014
MAE,36.9886016846,-120.111999512
AAF,29.72750092,-85.02749634
FPR,27.49510002,-80.36830139
PYM,41.909,-70.728798
NCO,41.597099304199,-71.412101745605
OWD,42.1904983521,-71.1728973389
BAF,42.157799,-72.715599
MGJ,41.50999832,-74.26460266
HAR,40.2170982361,-76.85150146480001
DXR,41.3714981079,-73.48220062259999
ASH,42.7817001343,-71.51480102539999
LWM,42.7172012329,-71.1233978271
OXC,41.47859954834,-73.135200500488
RMG,34.3506011963,-85.15799713130001
GAD,33.972599,-86.088996
WDR,33.98289871,-83.66739655
DNN,34.72290039,-84.87020111
LGC,33.0089,-85.072601
PIM,32.8406982422,-84.8824005127
GVL,34.27259827,-83.8302002
PHD,40.470901489258,-81.419700622559
HHH,32.2243995667,-80.6975021362
DNL,33.4664993286,-82.0393981934
MRN,35.820202,-81.611397
PVL,37.5617981,-82.56639862
TOC,34.59379959,-83.29579926
AFW,32.9875984192,-97.3188018799
LWC,39.01119995,-95.21659851
PPM,26.247100830078,-80.111099243164
LOZ,37.0821990967,-84.08489990230001
FBG,35.13180161,-78.93669891
RAC,42.7606010437,-87.8152008057
TIW,47.26789856,-122.5780029
GUF,30.29050064,-87.67179871
HZL,40.9868011475,-75.9949035645
CBE,39.615398407,-78.7609024048
LNR,43.2117004395,-90.181602478
JOT,41.51779938,-88.17549896
VYS,41.351898,-89.153099
JXN,42.2597999573,-84.45939636230001
BBX,40.1375007629,-75.2650985718
OBE,27.2628002167,-80.8498001099
SEF,27.45639992,-81.3423996
AVO,27.59119987,-81.52780151
GIF,28.062901,-81.753304
ZPH,28.2282009125,-82.15589904790001
OCF,29.17259979,-82.22419739
AIK,33.649399,-81.684998
CDN,34.2835998535,-80.56490325930001
LBT,34.6099014282,-79.05940246579999
SOP,35.23740005,-79.3911972
SVH,35.765300750732,-80.953903198242
LHV,41.13560104,-77.42230225
BKL,41.51750183105469,-81.68329620361328
DKK,42.49330139,-79.27200317
LLY,39.9429016113,-74.845703125
LDJ,40.617401123,-74.2445983887
ANQ,41.639702,-85.083504
CLW,27.9766998291,-82.7586975098
CGX,41.85879898071289,-87.60790252685547
CRE,33.8116989136,-78.72389984130001
WBW,41.2971992493,-75.8511962891
LNN,41.6839981079,-81.3897018433
FFT,38.18249893,-84.90470123
LEW,44.048500061,-70.2835006714
MRK,25.995001,-81.672501
DRE,46.0093002319,-83.74389648440001
GDW,43.9706001282,-84.47499847410002
MFI,44.6369018555,-90.1893005371
ISW,44.3602981567,-89.83899688720001
CWI,41.8311004639,-90.3291015625
BVY,42.5842018127,-70.91649627689999
POF,36.773899078369,-90.324897766113
EOK,40.4598999023,-91.4284973145
STP,44.93450164794922,-93.05999755859376
HAO,39.3638000488,-84.5220031738
FLD,43.7711982727,-88.48840332030001
STE,44.5452003479,-89.530296325684
GQQ,40.7533988953,-82.7238006592
CKV,36.6218986511,-87.4150009155
LPC,34.665599823,-120.468002319
CTH,39.97900009,-75.8655014
LKP,44.2644996643,-73.96189880370001
AOH,40.706902,-84.026703
SSI,31.15180016,-81.39129639
BFP,40.7724990845,-80.39140319820001
GGE,33.3116989136,-79.3196029663
HDI,35.22010040283203,-84.8323974609375
RNT,47.4930992126,-122.216003418
POC,34.091598510742,-117.78199768066
CTY,29.6354999542,-83.10479736330001
CEU,34.6719017,-82.8864975
BEC,37.6944999695,-97.21499633790002
SNY,41.10129929,-102.9850006
JRF,21.3074,-158.070009
ECA,44.312801,-83.422302
WBU,40.0393981934,-105.225997925
PAO,37.461101532,-122.114997864
MSC,33.4608001709,-111.727996826
PTK,42.665500640869,-83.420097351074
EEN,42.898399353027344,-72.27079772949219
IOW,41.6391983032,-91.5465011597
ANP,38.942902,-76.568398
PEQ,31.382400512695,-103.51100158691
HBG,31.26479912,-89.25279999
YKN,42.916698455811,-97.385902404785
HWD,37.659198761,-122.122001648
ARB,42.2229995728,-83.74559783939999
NGZ,37.78889846801758,-122.31999969482422
IMM,26.43320084,-81.40100098
PTB,37.183799743652,-77.507400512695
SBM,43.76959991,-87.85140228
MZJ,32.5106010437,-111.32800293
SAD,32.85480118,-109.6350021
SIK,36.898899078369,-89.561798095703
GFL,43.3412017822,-73.6102981567
MTN,39.325699,-76.413803
FRY,43.9911003113,-70.9478988647
NEW,30.042400360107,-90.028297424316
COE,47.77429962,-116.8199997
BMT,30.0706996918,-94.21579742430002
DNV,40.19919968,-87.59590149
TIX,28.514799118042,-80.799201965332
AAP,29.7224998474,-95.5883026123
FCM,44.8272018433,-93.4570999146
OJC,38.84759903,-94.73760223
MNZ,38.72140121,-77.51540375
LJN,29.1086006165,-95.462097168
PTA,60.201681,-154.325863
EWK,38.0582008362,-97.2744979858
TZR,46.39310073852539,17.917499542236328
FBR,41.3918991089,-110.406997681
CLS,46.6769981384,-122.983001709
EVW,41.27479935,-111.0350037
EUF,31.9512996674,-85.1288986206
MEO,35.91899872,-75.69550323
AUO,32.615101,-85.433998
DBN,32.56439972,-82.98529816
CVO,44.49720001,-123.2900009
OGD,41.195899963379,-112.0120010376
AKO,40.1755981445,-103.222000122
SHN,47.233600616455,-123.14800262451
WNA,60.69029998779297,-161.97900390625
PKA,60.70289993,-161.7779999
DYL,40.3330001831,-75.1222991943
OCW,35.570499420166,-77.049797058105
SWO,36.161201477051,-97.08570098877
OKM,35.668098449707,-95.948699951172
CUH,35.9499015808,-96.7731018066
CSM,35.3398017883,-99.2005004883
WLD,37.168598175,-97.0375976562
PWA,35.53419876,-97.64710236
DTN,32.5401992798,-93.7450027466
SEP,32.215301513672,-98.177696228027
ADT,34.804298,-96.671303
IRB,30.9057006836,-101.891998291
IKB,36.2228012085,-81.09829711910001
DAN,36.572898864746094,-79.33609771728516
HCW,34.71289825,-79.95700073
EMT,34.086102,-118.035004
SSF,29.336999893188,-98.471099853516
JAS,30.88570023,-94.03489685
MRF,30.371099,-104.017997
ALE,30.3841991425,-103.683998108
CCB,34.1115989685,-117.68800354
EKI,41.7193984985,-86.00319671630001
CUB,33.970500946,-80.9952011108
GDC,34.758301,-82.376404
HVS,34.4030990601,-80.11920166019999
LEE,28.82309914,-81.80870056
CNO,33.97470093,-117.637001
PRB,35.67290115,-120.6269989
HAF,37.5134010315,-122.500999451
WJF,34.74110031,-118.2190018
ASN,33.569900512699995,-86.05090332030001
GMU,34.8479003906,-82.34999847410002
TOI,31.860399,-86.012101
ETS,31.29969978,-85.89990234
ALX,32.914699554399995,-85.9629974365
HDE,40.452099,-99.336502
PTT,37.70159912,-98.74690247
LXN,40.7910003662,-99.7772979736
CBF,41.2592010498,-95.760597229
OKK,40.528198242188,-86.05899810791
GBG,40.9379997253,-90.431098938
GUY,36.6851005554,-101.508003235
IDP,37.1584014893,-95.7783966064
BBC,28.9733009338,-95.8635025024
PRX,33.636600494385,-95.450798034668
CFV,37.09400177,-95.5718994141
GXY,40.4374008179,-104.633003235
OEL,52.9347000122,36.0022010803
FET,41.44910049,-96.52020264
LGD,45.2901992798,-118.007003784
MPO,41.137503,-75.378897
UKT,40.435199737549,-75.381896972656
BNG,33.9230995178,-116.850997925
OFK,41.985500335693,-97.435096740723
TPF,27.915599822998,-82.44930267334
MTP,41.0765,-71.920797
VPZ,41.45399857,-87.00710297
LDM,43.96250153,-86.40789795
RHV,37.332901001,-121.819000244
WVI,36.9356994629,-121.790000916
HLI,36.8932991028,-121.410003662
ALN,38.89030075069999,-90.0459976196
AXN,45.8662986755,-95.3946990967
CLU,39.2619018555,-85.8963012695
BBD,31.1793003082,-99.3238983154
BIH,37.3731002808,-118.363998413
BKE,44.8372993469,-117.808998108
BPI,42.58509827,-110.1110001
WMH,36.3689002991,-92.4704971313
BTL,42.3073005676,-85.2515029907
BYI,42.5425987244,-113.772003174
CCY,43.0726013184,-92.6108016968
CNU,37.668800354,-95.4850997925
CRG,30.3362998962,-81.51439666750001
CSV,35.9513015747,-85.08499908450001
DAA,38.715000152600005,-77.1809997559
DAG,34.85369873,-116.7870026
DMN,32.262298584,-107.721000671
DRA,36.6194,-116.032997
EED,34.7663002014,-114.623001099
EGI,30.65040016,-86.52290344
EKA,40.8033981323,-124.112998962
HYR,46.025199890100005,-91.44429779050002
JCT,30.5112991333,-99.7634963989
LOL,40.0663986206,-118.565002441
MBG,45.54650116,-100.4079971
MCB,31.17849922,-90.47190094
MDH,37.778099060058594,-89.25199890136719
MMT,33.92079926,-80.80130005
NHZ,43.89220047,-69.93859863
NRB,30.39109993,-81.42469788
OGB,33.456798553467,-80.859497070312
OTM,41.10660172,-92.44789886
OZR,31.27569962,-85.71340179
PWY,42.79550171,-109.8069992
POU,41.6265983581543,-73.88420104980469
RSL,38.872100830078,-98.811798095703
RWF,44.54719925,-95.08229828
SNS,36.662799835205,-121.60600280762
TPH,38.06019974,-117.086998
UKI,39.125999450684,-123.20099639893
UOX,34.384300231934,-89.536796569824
HTV,30.7469005585,-95.5871963501
VTN,42.85779953,-100.5479965
WMC,40.8965988159,-117.805999756
WWR,36.438,-99.5226667
ZZV,39.9444007874,-81.89209747310001
ENN,64.54730224609375,-149.07400512695312
WWA,61.5717010498,-149.539993286
MVW,48.4709014893,-122.42099762
APT,35.060699,-85.585297
DCU,34.652698516799994,-86.94539642330001
GLW,37.03179932,-85.9536972
RNZ,40.9478988647,-87.1826019287
TBR,32.4827003479,-81.73690032959999
ETB,43.4221992493,-88.1278991699
GLR,45.0135002136,-84.7035980225
AID,40.10860061649999,-85.6129989624
PCD,43.019298553467,-91.12370300293
TSM,36.45819855,-105.6719971
RTN,36.74150085,-104.5019989
PPA,35.612998962402,-100.99600219727
FLP,36.29090118,-92.59030151
BGD,35.700901031499995,-101.393997192
SQA,34.60680008,-120.0759964
SPA,34.915699005127,-81.956497192383
PPF,37.32989883,-95.5062027
AYS,31.2490997314,-82.39550018310001
PMH,38.8404998779,-82.84729766850002
CLP,58.83369827,-158.529007
RDB,68.03209686279999,-162.899002075
SOV,59.442401885986,-151.70399475098
VDI,32.192699432373,-82.371200561523
MHE,43.7747993469,-98.0385971069
